frame,timestamp_iso,time_hms,raw_ax_g,raw_ay_g,raw_az_g,raw_gx_dps,raw_gy_dps,raw_gz_dps,raw_roll_deg,raw_pitch_deg,raw_yaw_deg,accel_lat_g,accel_lon_g,accel_vert_g,gyro_x_dps,gyro_y_dps,gyro_z_dps,pitch_deg,roll_deg,yaw_deg,mag_x,mag_y,mag_z,temp_c
0,2026-03-06T18:43:37.734000,18:43:37.734,1.33984,2.06719,-9.28799,-0.8545,4.7607,-6.4697,169.1,-5.2,171.3,1.33984,-2.06719,9.28799,-0.8545,-4.7607,-6.4697,-349.1,-5.2,171.3,-1644,1741,17990,26.07
1,2026-03-06T18:43:37.834000,18:43:37.834,1.62217,2.3543,-9.2832,-1.709,2.0142,-6.7139,168.6,-5.3,172.1,1.62217,-2.3543,9.2832,-1.709,-2.0142,-6.7139,-348.6,-5.3,172.1,-1571,1622,17782,26.07
2,2026-03-06T18:43:37.934000,18:43:37.934,1.41162,2.16289,-10.04404,-2.1973,0.2441,-6.6528,168.3,-5.6,172.8,1.41162,-2.16289,10.04404,-2.1973,-0.2441,-6.6528,-348.3,-5.6,172.8,-1582,1545,17784,26.19
3,2026-03-06T18:43:38.034000,18:43:38.034,1.15801,2.37822,-9.53682,2.2583,-2.6245,-6.0425,168.1,-5.6,173.5,1.15801,-2.37822,9.53682,2.2583,2.6245,-6.0425,-348.1,-5.6,173.5,-1611,1456,17772,26.19
4,2026-03-06T18:43:38.133000,18:43:38.133,1.03838,2.31123,-9.00088,-1.2207,0.4883,-5.8594,167.9,-5.4,174.0,1.03838,-2.31123,9.00088,-1.2207,-0.4883,-5.8594,-347.9,-5.4,174.0,-1549,1418,17802,25.94
5,2026-03-06T18:43:38.233000,18:43:38.233,1.04316,2.32559,-9.98184,-5.188,0.9766,-0.5493,167.7,-5.3,174.4,1.04316,-2.32559,9.98184,-5.188,-0.9766,-0.5493,-347.7,-5.3,174.4,-1500,1415,17801,26.32
6,2026-03-06T18:43:38.333000,18:43:38.333,1.69873,4.95264,-11.5418,-34.5459,-50.1099,6.958,167.3,-3.7,173.3,1.69873,-4.95264,11.5418,-34.5459,50.1099,6.958,-347.3,-3.7,173.3,-1355,1317,17755,26.19
7,2026-03-06T18:43:38.433000,18:43:38.433,1.17236,4.62725,-11.69492,-45.4102,-50.1709,-3.7842,160.1,0.5,171.1,1.17236,-4.62725,11.69492,-45.4102,50.1709,-3.7842,-340.1,0.5,171.1,-306,-136,17569,26.07
8,2026-03-06T18:43:38.533000,18:43:38.533,0.10049,2.80889,-7.91465,-118.042,19.165,-1.0376,149.2,1.4,171.4,0.10049,-2.80889,7.91465,-118.042,-19.165,-1.0376,-329.2,1.4,171.4,328,-2653,17003,25.94
9,2026-03-06T18:43:38.632000,18:43:38.632,-0.43545,4.18701,-7.00068,-98.0225,3.2349,-10.2539,141.1,1.2,172.6,-0.43545,-4.18701,7.00068,-98.0225,-3.2349,-10.2539,-321.1,1.2,172.6,-129,-5595,16138,26.26
10,2026-03-06T18:43:38.732000,18:43:38.732,-1.29678,5.42637,-5.81875,-62.0728,0.9766,-19.2871,135.1,1.9,174.0,-1.29678,-5.42637,5.81875,-62.0728,-0.9766,-19.2871,-315.1,1.9,174.0,-386,-8027,15166,26.19
11,2026-03-06T18:43:38.832000,18:43:38.832,-0.75605,6.32119,-4.92393,-45.8374,31.1279,-15.1367,129.9,2.2,175.8,-0.75605,-6.32119,4.92393,-45.8374,-31.1279,-15.1367,-309.9,2.2,175.8,-447,-9668,14189,26.19
12,2026-03-06T18:43:38.932000,18:43:38.932,-0.30146,7.71367,-6.55566,-8.5449,10.6812,3.9062,128.4,1.2,178.9,-0.30146,-7.71367,6.55566,-8.5449,-10.6812,3.9062,-308.4,1.2,178.9,-823,-10678,13440,26.19
13,2026-03-06T18:43:39.032000,18:43:39.032,-0.46416,7.66582,-6.30684,3.0518,12.7563,6.7139,128.0,0.9,179.2,-0.46416,-7.66582,6.30684,3.0518,-12.7563,6.7139,-308.0,0.9,179.2,-1082,-10984,13242,26.07
14,2026-03-06T18:43:39.131000,18:43:39.131,0.66035,7.44092,-6.52217,16.4185,5.5542,6.0425,129.2,-0.2,179.7,0.66035,-7.44092,6.52217,16.4185,-5.5542,6.0425,-309.2,-0.2,179.7,-1466,-10872,13303,26.19
15,2026-03-06T18:43:39.231000,18:43:39.231,-0.06699,8.03906,-6.92412,-1.5869,2.7466,6.6528,129.9,-0.7,179.7,-0.06699,-8.03906,6.92412,-1.5869,-2.7466,6.6528,-309.9,-0.7,179.7,-1649,-10543,13564,26.19
16,2026-03-06T18:43:39.331000,18:43:39.331,-0.20576,7.929,-5.7709,-13.3667,7.4463,0.6714,129.6,-2.0,-179.9,-0.20576,-7.929,5.7709,-13.3667,-7.4463,0.6714,-309.6,-2.0,-179.9,-1899,-10406,13619,26.13
17,2026-03-06T18:43:39.431000,18:43:39.431,0.33018,7.4457,-5.61777,0.6714,3.1738,-7.3853,128.8,-1.4,-179.4,0.33018,-7.4457,5.61777,0.6714,-3.1738,-7.3853,-308.8,-1.4,-179.4,-2027,-10603,13431,26.07
18,2026-03-06T18:43:39.531000,18:43:39.531,1.03838,7.39307,-6.54131,17.9443,-1.709,-3.9062,129.5,-0.8,-179.1,1.03838,-7.39307,6.54131,17.9443,1.709,-3.9062,-309.5,-0.8,-179.1,-1880,-10656,13436,26.13
19,2026-03-06T18:43:39.631000,18:43:39.631,-0.24883,6.81406,-6.43604,3.6621,3.6011,1.4038,130.4,-1.7,-178.7,-0.24883,-6.81406,6.43604,3.6621,-3.6011,1.4038,-310.4,-1.7,-178.7,-1916,-10489,13589,26.19
20,2026-03-06T18:43:39.730000,18:43:39.730,-0.09092,6.84277,-6.69443,10.3149,3.479,-4.5166,131.4,-2.1,-178.1,-0.09092,-6.84277,6.69443,10.3149,-3.479,-4.5166,-311.4,-2.1,-178.1,-2069,-10362,13750,26.13
21,2026-03-06T18:43:39.830000,18:43:39.830,0.58857,7.11074,-6.79492,11.4746,-8.9722,-10.6201,132.6,-0.8,-177.9,0.58857,-7.11074,6.79492,11.4746,8.9722,-10.6201,-312.6,-0.8,-177.9,-1916,-10090,13937,26.13
22,2026-03-06T18:43:39.930000,18:43:39.930,0.0335,7.43135,-6.70879,-3.1738,-2.2583,1.3428,131.9,-0.8,-177.5,0.0335,-7.43135,6.70879,-3.1738,2.2583,1.3428,-311.9,-0.8,-177.5,-1677,-10011,14008,26.19
23,2026-03-06T18:43:40.030000,18:43:40.030,0.38281,7.59883,-5.87617,-11.5356,-0.3662,-5.4932,131.2,-0.5,-177.4,0.38281,-7.59883,5.87617,-11.5356,0.3662,-5.4932,-311.2,-0.5,-177.4,-1611,-10124,13964,26.26
24,2026-03-06T18:43:40.130000,18:43:40.130,0.01436,7.57969,-6.38818,2.8076,6.6528,1.4648,131.4,-0.3,-177.1,0.01436,-7.57969,6.38818,2.8076,-6.6528,1.4648,-311.4,-0.3,-177.1,-1485,-10219,13890,26.07
25,2026-03-06T18:43:40.229000,18:43:40.229,-0.24883,7.32129,-5.97666,12.3291,6.0425,0.1831,132.0,-1.0,-176.8,-0.24883,-7.32129,5.97666,12.3291,-6.0425,0.1831,-312.0,-1.0,-176.8,-1606,-10151,13918,26.19
26,2026-03-06T18:43:40.329000,18:43:40.329,0.10049,7.13945,-6.88105,19.9585,0.7324,-4.8828,132.7,-0.2,-176.7,0.10049,-7.13945,6.88105,19.9585,-0.7324,-4.8828,-312.7,-0.2,-176.7,-1538,-10002,14094,26.26
27,2026-03-06T18:43:40.429000,18:43:40.429,-0.0957,6.88105,-6.5748,0.1831,1.6479,2.5024,133.5,-0.6,-176.3,-0.0957,-6.88105,6.5748,0.1831,-1.6479,2.5024,-313.5,-0.6,-176.3,-1459,-9698,14299,26.13
28,2026-03-06T18:43:40.529000,18:43:40.529,-0.62686,5.479,-5.45986,65.4907,-5.7983,4.0283,135.8,-0.5,-176.8,-0.62686,-5.479,5.45986,65.4907,5.7983,4.0283,-315.8,-0.5,-176.8,-1463,-9472,14458,26.26
29,2026-03-06T18:43:40.629000,18:43:40.629,-0.34453,4.27314,-5.91445,129.9438,-22.2168,9.5825,144.8,0.1,-177.6,-0.34453,-4.27314,5.91445,129.9438,22.2168,9.5825,-324.8,0.1,-177.6,-1287,-7839,15511,26.19
30,2026-03-06T18:43:40.728000,18:43:40.728,0.15313,4.41191,-9.80957,98.2666,-16.4185,13.0615,156.1,0.5,-179.4,0.15313,-4.41191,9.80957,98.2666,16.4185,13.0615,-336.1,0.5,-179.4,-818,-4650,16941,26.0
31,2026-03-06T18:43:40.828000,18:43:40.828,0.65078,3.74199,-11.08721,31.0059,35.3394,7.5684,162.8,-0.2,179.3,0.65078,-3.74199,11.08721,31.0059,-35.3394,7.5684,-342.8,-0.2,179.3,-306,-1841,17782,26.07
32,2026-03-06T18:43:40.928000,18:43:40.928,1.38291,1.85664,-9.41719,37.5977,26.4893,2.9907,165.0,-4.1,179.4,1.38291,-1.85664,9.41719,37.5977,-26.4893,2.9907,-345.0,-4.1,179.4,-831,-513,18157,26.26
33,2026-03-06T18:43:41.028000,18:43:41.028,1.12451,2.50742,-11.04893,-10.2539,-20.6909,-21.3013,166.8,-2.7,-179.5,1.12451,-2.50742,11.04893,-10.2539,20.6909,-21.3013,-346.8,-2.7,-179.5,-1040,430,18325,26.19
34,2026-03-06T18:43:41.128000,18:43:41.128,0.15313,1.9332,-8.79512,10.7422,-8.0566,-8.5449,166.2,-1.7,-178.7,0.15313,-1.9332,8.79512,10.7422,8.0566,-8.5449,-346.2,-1.7,-178.7,-443,445,18321,26.26
35,2026-03-06T18:43:41.227000,18:43:41.227,0.39717,2.39736,-11.35039,-7.2632,7.6294,-2.5635,166.3,-0.9,-178.2,0.39717,-2.39736,11.35039,-7.2632,-7.6294,-2.5635,-346.3,-0.9,-178.2,86,581,18454,26.19
36,2026-03-06T18:43:41.327000,18:43:41.327,0.58379,2.07676,-9.55596,-1.6479,16.8457,1.8921,166.1,-2.4,-177.7,0.58379,-2.07676,9.55596,-1.6479,-16.8457,1.8921,-346.1,-2.4,-177.7,31,447,18438,26.19
37,2026-03-06T18:43:41.427000,18:43:41.427,0.646,2.07676,-9.87656,2.3193,2.7466,-4.5166,166.2,-3.6,-177.2,0.646,-2.07676,9.87656,2.3193,-2.7466,-4.5166,-346.2,-3.6,-177.2,-351,364,18414,26.26
38,2026-03-06T18:43:41.527000,18:43:41.527,0.39717,1.9332,-9.5751,3.9062,2.7466,-5.8594,166.6,-3.7,-176.6,0.39717,-1.9332,9.5751,3.9062,-2.7466,-5.8594,-346.6,-3.7,-176.6,-518,405,18380,26.19
39,2026-03-06T18:43:41.627000,18:43:41.627,0.71777,1.82314,-9.77607,-1.709,4.9438,-5.3101,166.8,-3.7,-175.9,0.71777,-1.82314,9.77607,-1.709,-4.9438,-5.3101,-346.8,-3.7,-175.9,-534,482,18406,25.94
40,2026-03-06T18:43:41.726000,18:43:41.726,1.21543,1.93799,-9.81436,-1.77,4.1504,-2.1362,166.8,-4.3,-175.5,1.21543,-1.93799,9.81436,-1.77,-4.1504,-2.1362,-346.8,-4.3,-175.5,-629,499,18366,26.07
41,2026-03-06T18:43:41.826000,18:43:41.826,0.62207,1.83271,-9.44111,-0.4272,-0.3662,-5.9814,167.0,-4.4,-175.1,0.62207,-1.83271,9.44111,-0.4272,0.3662,-5.9814,-347.0,-4.4,-175.1,-709,510,18379,26.19
42,2026-03-06T18:43:41.926000,18:43:41.926,0.56465,1.94756,-9.92441,-0.9155,3.479,-5.8594,167.1,-4.7,-174.4,0.56465,-1.94756,9.92441,-0.9155,-3.479,-5.8594,-347.1,-4.7,-174.4,-775,546,18396,26.19
43,2026-03-06T18:43:42.026000,18:43:42.026,1.27285,1.81357,-9.59424,2.0752,5.4932,-2.5635,166.9,-5.0,-174.0,1.27285,-1.81357,9.59424,2.0752,-5.4932,-2.5635,-346.9,-5.0,-174.0,-845,491,18354,26.19
44,2026-03-06T18:43:42.126000,18:43:42.126,0.72734,1.76572,-9.31191,2.9907,-2.0752,-3.418,167.3,-4.8,-173.6,0.72734,-1.76572,9.31191,2.9907,2.0752,-3.418,-347.3,-4.8,-173.6,-892,516,18310,26.19
45,2026-03-06T18:43:42.226000,18:43:42.226,0.62207,1.81357,-9.5416,-1.709,-3.3569,-3.6011,167.6,-4.6,-173.3,0.62207,-1.81357,9.5416,-1.709,3.3569,-3.6011,-347.6,-4.6,-173.3,-776,568,18324,26.32
46,2026-03-06T18:43:42.325000,18:43:42.325,1.225,1.86621,-9.48896,0.9766,0.1221,-2.2583,167.6,-4.7,-173.0,1.225,-1.86621,9.48896,0.9766,-0.1221,-2.2583,-347.6,-4.7,-173.0,-717,560,18345,26.13
47,2026-03-06T18:43:42.425000,18:43:42.425,0.82783,1.70352,-9.74258,1.5259,2.1362,-4.0894,167.8,-4.7,-172.7,0.82783,-1.70352,9.74258,1.5259,-2.1362,-4.0894,-347.8,-4.7,-172.7,-697,569,18333,26.26
48,2026-03-06T18:43:42.525000,18:43:42.525,0.66992,1.79443,-9.39326,-0.061,3.0518,-3.1128,167.8,-4.6,-172.3,0.66992,-1.79443,9.39326,-0.061,-3.0518,-3.1128,-347.8,-4.6,-172.3,-638,571,18357,26.26
49,2026-03-06T18:43:42.625000,18:43:42.625,1.07666,1.88535,-9.36934,-3.418,1.4038,-2.9297,167.7,-4.6,-172.0,1.07666,-1.88535,9.36934,-3.418,-1.4038,-2.9297,-347.7,-4.6,-172.0,-598,527,18283,26.19
50,2026-03-06T18:43:42.725000,18:43:42.725,1.29678,1.804,-9.67559,-0.3052,2.4414,-4.0894,167.6,-4.8,-171.4,1.29678,-1.804,9.67559,-0.3052,-2.4414,-4.0894,-347.6,-4.8,-171.4,-581,442,18285,26.32
51,2026-03-06T18:43:42.825000,18:43:42.825,0.58857,1.73701,-10.06797,2.4414,-2.1362,-4.5166,168.0,-4.9,-171.0,0.58857,-1.73701,10.06797,2.4414,2.1362,-4.5166,-348.0,-4.9,-171.0,-605,484,18311,26.38
52,2026-03-06T18:43:42.925000,18:43:42.925,0.47852,1.95713,-9.23535,-1.6479,2.6245,-2.3193,167.8,-4.5,-170.7,0.47852,-1.95713,9.23535,-1.6479,-2.6245,-2.3193,-347.8,-4.5,-170.7,-544,487,18277,26.26
53,2026-03-06T18:43:43.024000,18:43:43.024,1.23936,1.72744,-9.51768,-5.0049,-0.4272,-2.9907,167.7,-4.7,-170.4,1.23936,-1.72744,9.51768,-5.0049,0.4272,-2.9907,-347.7,-4.7,-170.4,-527,458,18289,26.26
54,2026-03-06T18:43:43.124000,18:43:43.124,1.05273,1.75137,-9.22578,6.3477,-4.3945,-4.5776,167.9,-4.8,-170.0,1.05273,-1.75137,9.22578,6.3477,4.3945,-4.5776,-347.9,-4.8,-170.0,-569,401,18296,26.26
55,2026-03-06T18:43:43.224000,18:43:43.224,0.3541,1.78008,-9.85742,6.3477,0.1221,-6.2866,168.4,-4.6,-169.6,0.3541,-1.78008,9.85742,6.3477,-0.1221,-6.2866,-348.4,-4.6,-169.6,-537,464,18299,26.26
56,2026-03-06T18:43:43.324000,18:43:43.324,0.65078,1.23457,-9.45068,5.5542,2.1973,-2.9907,169.0,-4.6,-169.1,0.65078,-1.23457,9.45068,5.5542,-2.1973,-2.9907,-349.0,-4.6,-169.1,-497,579,18349,26.38
57,2026-03-06T18:43:43.424000,18:43:43.424,0.93311,1.21543,-9.72822,-0.6714,0.3052,-2.9297,169.4,-4.6,-168.9,0.93311,-1.21543,9.72822,-0.6714,-0.3052,-2.9297,-349.4,-4.6,-168.9,-540,704,18386,26.13
58,2026-03-06T18:43:43.524000,18:43:43.524,0.7417,0.53594,-9.69473,5.5542,-2.3804,-2.8687,169.8,-4.5,-168.5,0.7417,-0.53594,9.69473,5.5542,2.3804,-2.8687,-349.8,-4.5,-168.5,-526,734,18352,26.07
59,2026-03-06T18:43:43.623000,18:43:43.623,0.36846,1.14365,-9.74258,-3.6011,7.0801,-2.0142,170.0,-4.6,-168.4,0.36846,-1.14365,9.74258,-3.6011,-7.0801,-2.0142,-350.0,-4.6,-168.4,-479,821,18344,26.32
60,2026-03-06T18:43:43.723000,18:43:43.723,0.67949,1.27285,-9.5751,-0.6714,1.9531,-1.5869,169.8,-4.6,-168.0,0.67949,-1.27285,9.5751,-0.6714,-1.9531,-1.5869,-349.8,-4.6,-168.0,-574,747,18344,26.32
61,2026-03-06T18:43:43.823000,18:43:43.823,1.17715,1.00488,-9.57988,-0.4272,-0.8545,-1.5869,170.0,-4.8,-167.9,1.17715,-1.00488,9.57988,-0.4272,0.8545,-1.5869,-350.0,-4.8,-167.9,-671,674,18299,26.26
62,2026-03-06T18:43:43.923000,18:43:43.923,0.27275,1.16279,-10.21631,-1.4038,-2.3804,-3.479,170.2,-4.8,-167.6,0.27275,-1.16279,10.21631,-1.4038,2.3804,-3.479,-350.2,-4.8,-167.6,-733,662,18325,26.19
63,2026-03-06T18:43:44.023000,18:43:44.023,-0.05742,1.13408,-9.21143,-17.2119,4.1504,-3.418,169.3,-4.6,-167.2,-0.05742,-1.13408,9.21143,-17.2119,-4.1504,-3.418,-349.3,-4.6,-167.2,-730,524,18348,26.19
64,2026-03-06T18:43:44.122000,18:43:44.122,0.39238,1.63652,-9.08223,-25.3296,12.6953,-0.6714,167.3,-5.2,-167.0,0.39238,-1.63652,9.08223,-25.3296,-12.6953,-0.6714,-347.3,-5.2,-167.0,-806,27,18300,26.38
65,2026-03-06T18:43:44.222000,18:43:44.222,1.63652,2.25381,-10.24502,-11.2915,14.4043,3.2959,165.7,-7.4,-166.7,1.63652,-2.25381,10.24502,-11.2915,-14.4043,3.2959,-345.7,-7.4,-166.7,-1273,-639,18171,26.26
66,2026-03-06T18:43:44.322000,18:43:44.322,1.54561,2.01934,-9.49375,0.8545,5.4932,-1.3428,165.1,-7.4,-166.5,1.54561,-2.01934,9.49375,0.8545,-5.4932,-1.3428,-345.1,-7.4,-166.5,-1652,-1075,18076,26.13
67,2026-03-06T18:43:44.422000,18:43:44.422,0.67949,2.05283,-9.62295,5.8594,-7.0801,-0.6714,165.8,-7.2,-166.6,0.67949,-2.05283,9.62295,5.8594,7.0801,-0.6714,-345.8,-7.2,-166.6,-1748,-1117,18101,26.32
68,2026-03-06T18:43:44.522000,18:43:44.522,-0.05264,1.88057,-9.24492,0.8545,-6.2256,0.1831,166.7,-6.8,-166.7,-0.05264,-1.88057,9.24492,0.8545,6.2256,0.1831,-346.7,-6.8,-166.7,-1662,-889,18179,26.26
69,2026-03-06T18:43:44.621000,18:43:44.621,1.0958,2.16768,-9.57988,-5.3101,-3.7842,1.1597,166.5,-6.6,-166.6,1.0958,-2.16768,9.57988,-5.3101,3.7842,1.1597,-346.5,-6.6,-166.6,-1601,-828,18197,26.13
70,2026-03-06T18:43:44.721000,18:43:44.721,1.95234,2.20117,-8.9291,3.2349,1.4648,3.6011,166.3,-6.2,-167.1,1.95234,-2.20117,8.9291,3.2349,-1.4648,3.6011,-346.3,-6.2,-167.1,-1501,-907,18123,26.26
71,2026-03-06T18:43:44.821000,18:43:44.821,0.59814,1.64609,-9.82393,22.583,-13.0005,-0.9766,168.3,-6.0,-167.6,0.59814,-1.64609,9.82393,22.583,13.0005,-0.9766,-348.3,-6.0,-167.6,-1523,-644,18173,26.32
72,2026-03-06T18:43:44.921000,18:43:44.921,-0.11006,1.20107,-9.4459,7.9346,-1.3428,-7.9956,169.8,-5.4,-166.7,-0.11006,-1.20107,9.4459,7.9346,1.3428,-7.9956,-349.8,-5.4,-166.7,-1390,-88,18308,26.19
73,2026-03-06T18:43:45.021000,18:43:45.021,0.4833,1.52168,-10.24502,-0.061,-0.3052,1.2817,170.1,-5.1,-166.6,0.4833,-1.52168,10.24502,-0.061,0.3052,1.2817,-350.1,-5.1,-166.6,-1303,133,18329,26.32
74,2026-03-06T18:43:45.121000,18:43:45.121,1.1915,1.45947,-9.24014,-3.7842,4.0283,4.0894,169.6,-5.1,-166.9,1.1915,-1.45947,9.24014,-3.7842,-4.0283,4.0894,-349.6,-5.1,-166.9,-1281,93,18309,26.13
75,2026-03-06T18:43:45.220000,18:43:45.220,0.29189,1.50732,-9.55117,6.6528,-2.7466,0.8545,170.0,-5.0,-167.2,0.29189,-1.50732,9.55117,6.6528,2.7466,0.8545,-350.0,-5.0,-167.2,-1380,31,18264,26.32
76,2026-03-06T18:43:45.320000,18:43:45.320,0.27754,1.4834,-9.0583,-3.2959,3.7842,0.061,170.1,-5.0,-167.3,0.27754,-1.4834,9.0583,-3.2959,-3.7842,0.061,-350.1,-5.0,-167.3,-1371,147,18320,26.19
77,2026-03-06T18:43:45.420000,18:43:45.420,0.17227,1.24414,-9.68516,5.6152,0.4272,3.2349,170.6,-5.1,-167.5,0.17227,-1.24414,9.68516,5.6152,-0.4272,3.2349,-350.6,-5.1,-167.5,-1445,234,18332,26.38
78,2026-03-06T18:43:45.520000,18:43:45.520,0.76562,1.44512,-9.34541,-9.6436,6.5308,1.77,170.2,-5.0,-167.6,0.76562,-1.44512,9.34541,-9.6436,-6.5308,1.77,-350.2,-5.0,-167.6,-1473,277,18399,26.32
79,2026-03-06T18:43:45.620000,18:43:45.620,0.65557,1.17236,-10.12061,6.2866,-9.2163,6.0425,170.6,-5.0,-168.2,0.65557,-1.17236,10.12061,6.2866,9.2163,6.0425,-350.6,-5.0,-168.2,-1571,180,18415,26.26
80,2026-03-06T18:43:45.720000,18:43:45.720,0.38281,1.11494,-9.95791,-3.418,-3.6621,2.6245,170.9,-4.7,-168.6,0.38281,-1.11494,9.95791,-3.418,3.6621,2.6245,-350.9,-4.7,-168.6,-1506,323,18404,26.26
81,2026-03-06T18:43:45.819000,18:43:45.819,0.09092,1.26807,-9.06787,6.2866,0.4883,5.127,171.1,-4.5,-169.1,0.09092,-1.26807,9.06787,6.2866,-0.4883,5.127,-351.1,-4.5,-169.1,-1495,353,18426,26.32
82,2026-03-06T18:43:45.919000,18:43:45.919,0.00957,1.15322,-9.96748,-2.9297,-1.0376,2.1362,171.6,-4.3,-169.4,0.00957,-1.15322,9.96748,-2.9297,1.0376,2.1362,-351.6,-4.3,-169.4,-1546,518,18477,26.38
83,2026-03-06T18:43:46.019000,18:43:46.019,1.05273,1.40684,-9.88135,-0.5493,4.1504,7.019,171.3,-4.6,-169.8,1.05273,-1.40684,9.88135,-0.5493,-4.1504,7.019,-351.3,-4.6,-169.8,-1585,481,18517,26.32
84,2026-03-06T18:43:46.119000,18:43:46.119,0.39717,1.16279,-9.76172,1.1597,-2.1973,3.1128,171.6,-4.3,-170.4,0.39717,-1.16279,9.76172,1.1597,2.1973,3.1128,-351.6,-4.3,-170.4,-1662,483,18442,26.26
85,2026-03-06T18:43:46.219000,18:43:46.219,0.24883,0.80391,-10.09189,2.9907,-4.5166,5.0659,171.9,-3.9,-170.8,0.24883,-0.80391,10.09189,2.9907,4.5166,5.0659,-351.9,-3.9,-170.8,-1650,542,18454,26.32
86,2026-03-06T18:43:46.318000,18:43:46.318,0.26797,1.03838,-9.22578,-1.5259,1.4038,4.3335,172.0,-3.7,-171.3,0.26797,-1.03838,9.22578,-1.5259,-1.4038,4.3335,-352.0,-3.7,-171.3,-1630,599,18488,26.26
87,2026-03-06T18:43:46.418000,18:43:46.418,0.21533,0.76562,-10.20674,-1.8921,-4.9438,5.3101,172.2,-3.5,-171.9,0.21533,-0.76562,10.20674,-1.8921,4.9438,5.3101,-352.2,-3.5,-171.9,-1648,634,18515,26.32
88,2026-03-06T18:43:46.518000,18:43:46.518,0.36367,1.26328,-9.79521,-0.6104,-0.7935,6.897,172.0,-3.4,-172.4,0.36367,-1.26328,9.79521,-0.6104,0.7935,6.897,-352.0,-3.4,-172.4,-1668,629,18486,26.32
89,2026-03-06T18:43:46.618000,18:43:46.618,0.0335,1.28242,-9.80957,-4.0894,-1.5869,4.9438,172.1,-3.2,-173.1,0.0335,-1.28242,9.80957,-4.0894,1.5869,4.9438,-352.1,-3.2,-173.1,-1691,662,18498,26.45
90,2026-03-06T18:43:46.718000,18:43:46.718,0.06221,1.15801,-9.91484,2.2583,-2.0142,7.7515,172.1,-3.0,-173.6,0.06221,-1.15801,9.91484,2.2583,2.0142,7.7515,-352.1,-3.0,-173.6,-1726,665,18497,26.26
91,2026-03-06T18:43:46.818000,18:43:46.818,0.1627,1.40684,-9.65166,-4.3945,1.2207,6.7139,172.0,-2.9,-174.4,0.1627,-1.40684,9.65166,-4.3945,-1.2207,6.7139,-352.0,-2.9,-174.4,-1751,706,18505,26.32
92,2026-03-06T18:43:46.917000,18:43:46.917,0.24883,1.3207,-9.71387,-0.4272,-0.061,8.1177,171.8,-2.7,-175.1,0.24883,-1.3207,9.71387,-0.4272,0.061,8.1177,-351.8,-2.7,-175.1,-1785,670,18479,26.19
93,2026-03-06T18:43:47.017000,18:43:47.017,-0.0957,1.3542,-9.70908,-2.3804,-1.8921,7.2021,171.8,-2.5,-175.9,-0.0957,-1.3542,9.70908,-2.3804,1.8921,7.2021,-351.8,-2.5,-175.9,-1819,694,18418,26.32
94,2026-03-06T18:43:47.117000,18:43:47.117,0.26318,1.40205,-10.0249,1.0986,-0.4883,8.7891,171.7,-2.5,-176.8,0.26318,-1.40205,10.0249,1.0986,0.4883,8.7891,-351.7,-2.5,-176.8,-1856,707,18399,26.26
95,2026-03-06T18:43:47.217000,18:43:47.217,-0.09092,1.51211,-9.36934,-2.6245,1.4038,7.0801,171.6,-2.5,-177.5,-0.09092,-1.51211,9.36934,-2.6245,-1.4038,7.0801,-351.6,-2.5,-177.5,-1918,726,18404,26.38
96,2026-03-06T18:43:47.317000,18:43:47.317,0.66992,1.41162,-9.6373,-2.3804,1.5259,10.0098,171.4,-2.5,-178.4,0.66992,-1.41162,9.6373,-2.3804,-1.5259,10.0098,-351.4,-2.5,-178.4,-1938,649,18281,26.38
97,2026-03-06T18:43:47.416000,18:43:47.416,0.6125,1.52168,-9.51289,-2.1362,-3.479,7.2021,171.2,-2.5,-179.2,0.6125,-1.52168,9.51289,-2.1362,3.479,7.2021,-351.2,-2.5,-179.2,-2005,646,18306,26.38
98,2026-03-06T18:43:47.516000,18:43:47.516,0.40674,1.63174,-9.98184,1.709,-3.479,7.6294,171.3,-2.5,179.9,0.40674,-1.63174,9.98184,1.709,3.479,7.6294,-351.3,-2.5,179.9,-2045,655,18254,26.45
99,2026-03-06T18:43:47.616000,18:43:47.616,0.31104,2.01934,-9.32148,-2.9297,0.3662,6.2866,171.1,-2.4,179.3,0.31104,-2.01934,9.32148,-2.9297,-0.3662,6.2866,-351.1,-2.4,179.3,-2057,689,18273,26.32
100,2026-03-06T18:43:47.716000,18:43:47.716,0.579,1.76094,-9.75693,2.0142,0.5493,6.2866,171.1,-2.5,178.6,0.579,-1.76094,9.75693,2.0142,-0.5493,6.2866,-351.1,-2.5,178.6,-2084,713,18282,26.26
101,2026-03-06T18:43:47.816000,18:43:47.816,0.53115,1.73701,-9.34063,-1.8921,-2.4414,6.4087,170.9,-2.5,178.0,0.53115,-1.73701,9.34063,-1.8921,2.4414,6.4087,-350.9,-2.5,178.0,-2112,767,18312,26.32
102,2026-03-06T18:43:47.916000,18:43:47.916,0.94268,1.82314,-9.69951,0.4272,-0.3052,8.3618,170.9,-2.7,177.2,0.94268,-1.82314,9.69951,0.4272,0.3052,8.3618,-350.9,-2.7,177.2,-2138,780,18318,26.19
103,2026-03-06T18:43:48.015000,18:43:48.015,0.59814,2.17246,-9.23535,-4.3335,-2.0142,5.249,170.5,-2.7,176.7,0.59814,-2.17246,9.23535,-4.3335,2.0142,5.249,-350.5,-2.7,176.7,-2176,816,18308,26.38
104,2026-03-06T18:43:48.115000,18:43:48.115,0.82305,2.4165,-9.6708,-0.061,0.9155,6.6528,170.2,-2.8,175.9,0.82305,-2.4165,9.6708,-0.061,-0.9155,6.6528,-350.2,-2.8,175.9,-2205,769,18332,26.26
105,2026-03-06T18:43:48.215000,18:43:48.215,0.6125,2.52178,-9.51289,-3.2349,-3.2959,4.6387,169.8,-2.9,175.4,0.6125,-2.52178,9.51289,-3.2349,3.2959,4.6387,-349.8,-2.9,175.4,-2252,783,18327,26.32
106,2026-03-06T18:43:48.315000,18:43:48.315,0.68428,2.38301,-9.5416,2.8076,-2.2583,6.7749,169.7,-2.9,174.8,0.68428,-2.38301,9.5416,2.8076,2.2583,6.7749,-349.7,-2.9,174.8,-2251,825,18336,26.32
107,2026-03-06T18:43:48.415000,18:43:48.415,0.39238,2.47871,-9.13965,-3.9673,-2.5635,4.0283,169.4,-2.7,174.2,0.39238,-2.47871,9.13965,-3.9673,2.5635,4.0283,-349.4,-2.7,174.2,-2246,896,18346,26.45
108,2026-03-06T18:43:48.514000,18:43:48.514,0.55029,2.58398,-9.57988,0.6104,-1.9531,5.9814,169.1,-2.6,173.6,0.55029,-2.58398,9.57988,0.6104,1.9531,5.9814,-349.1,-2.6,173.6,-2246,844,18367,26.32
109,2026-03-06T18:43:48.614000,18:43:48.614,0.68906,2.45,-9.35498,-4.5776,-0.1831,5.4932,168.7,-2.6,173.0,0.68906,-2.45,9.35498,-4.5776,0.1831,5.4932,-348.7,-2.6,173.0,-2222,843,18386,26.45
110,2026-03-06T18:43:48.714000,18:43:48.714,0.77041,2.64619,-9.78564,2.3804,-3.479,6.958,168.5,-2.6,172.4,0.77041,-2.64619,9.78564,2.3804,3.479,6.958,-348.5,-2.6,172.4,-2238,836,18359,26.26
111,2026-03-06T18:43:48.814000,18:43:48.814,0.30146,2.30645,-9.0918,-2.7466,-0.4883,5.4321,168.3,-2.5,171.8,0.30146,-2.30645,9.0918,-2.7466,0.4883,5.4321,-348.3,-2.5,171.8,-2227,921,18373,26.32
112,2026-03-06T18:43:48.914000,18:43:48.914,0.56465,2.58398,-9.55596,0.3052,-0.6104,7.0801,168.0,-2.6,171.1,0.56465,-2.58398,9.55596,0.3052,0.6104,7.0801,-348.0,-2.6,171.1,-2261,925,18389,26.38
113,2026-03-06T18:43:49.014000,18:43:49.014,0.56943,2.39736,-9.25449,-1.9531,-2.3804,5.0659,167.7,-2.5,170.5,0.56943,-2.39736,9.25449,-1.9531,2.3804,5.0659,-347.7,-2.5,170.5,-2254,957,18404,26.38
114,2026-03-06T18:43:49.113000,18:43:49.113,0.29668,2.45,-9.95312,-1.0376,-2.0142,7.1411,167.7,-2.5,169.8,0.29668,-2.45,9.95312,-1.0376,2.0142,7.1411,-347.7,-2.5,169.8,-2265,949,18392,26.38
115,2026-03-06T18:43:49.213000,18:43:49.213,0.69385,2.58398,-9.12051,3.6621,-2.9907,9.2163,167.4,-2.5,169.1,0.69385,-2.58398,9.12051,3.6621,2.9907,9.2163,-347.4,-2.5,169.1,-2315,972,18352,26.26
116,2026-03-06T18:43:49.313000,18:43:49.313,0.00479,2.97158,-9.46025,7.6904,-7.5684,12.3901,167.8,-2.2,167.6,0.00479,-2.97158,9.46025,7.6904,7.5684,12.3901,-347.8,-2.2,167.6,-2241,1100,18411,26.26
117,2026-03-06T18:43:49.413000,18:43:49.413,-0.06699,2.0959,-9.29756,3.0518,-0.4883,3.479,168.0,-1.4,166.9,-0.06699,-2.0959,9.29756,3.0518,0.4883,3.479,-348.0,-1.4,166.9,-2051,1242,18437,26.19
118,2026-03-06T18:43:49.513000,18:43:49.513,0.5168,1.73223,-10.13496,-1.4648,-7.1411,5.249,168.5,-1.6,166.2,0.5168,-1.73223,10.13496,-1.4648,7.1411,5.249,-348.5,-1.6,166.2,-2040,1428,18468,26.38
119,2026-03-06T18:43:49.612000,18:43:49.612,0.53594,1.50254,-9.46504,3.54,1.77,6.897,168.3,-1.5,165.7,0.53594,-1.50254,9.46504,3.54,-1.77,6.897,-348.3,-1.5,165.7,-1998,1439,18435,26.38
120,2026-03-06T18:43:49.712000,18:43:49.712,-0.39717,1.76572,-9.6373,-5.7983,-4.1504,4.5166,168.3,-1.4,165.1,-0.39717,-1.76572,9.6373,-5.7983,4.1504,4.5166,-348.3,-1.4,165.1,-2015,1463,18485,26.32
121,2026-03-06T18:43:49.812000,18:43:49.812,0.43545,1.32549,-9.56553,5.3711,6.0425,9.1553,168.7,-1.7,164.3,0.43545,-1.32549,9.56553,5.3711,-6.0425,9.1553,-348.7,-1.7,164.3,-2075,1493,18457,26.38
122,2026-03-06T18:43:49.912000,18:43:49.912,0.3876,1.50732,-9.68037,-1.5259,3.1738,5.7373,168.9,-2.0,163.7,0.3876,-1.50732,9.68037,-1.5259,-3.1738,5.7373,-348.9,-2.0,163.7,-2228,1607,18476,26.38
123,2026-03-06T18:43:50.012000,18:43:50.012,0.82783,1.38291,-9.88135,4.2114,1.3428,7.4463,169.4,-2.6,163.0,0.82783,-1.38291,9.88135,4.2114,-1.3428,7.4463,-349.4,-2.6,163.0,-2391,1704,18488,26.32
124,2026-03-06T18:43:50.112000,18:43:50.112,0.54072,1.77051,-9.26406,-1.5259,0.1831,7.3242,169.4,-2.6,162.4,0.54072,-1.77051,9.26406,-1.5259,-0.1831,7.3242,-349.4,-2.6,162.4,-2431,1839,18485,26.32
125,2026-03-06T18:43:50.211000,18:43:50.211,0.45938,1.63652,-9.93877,-2.0142,-2.1362,2.6855,169.8,-2.7,161.8,0.45938,-1.63652,9.93877,-2.0142,2.1362,2.6855,-349.8,-2.7,161.8,-2506,1946,18485,26.38
126,2026-03-06T18:43:50.311000,18:43:50.311,0.62686,1.67959,-9.24971,-1.6479,5.7373,6.7749,169.7,-3.1,161.4,0.62686,-1.67959,9.24971,-1.6479,-5.7373,6.7749,-349.7,-3.1,161.4,-2595,1973,18479,26.45
127,2026-03-06T18:43:50.411000,18:43:50.411,1.13887,1.8375,-9.84785,-6.5918,-9.0942,4.3335,169.4,-3.2,160.8,1.13887,-1.8375,9.84785,-6.5918,9.0942,4.3335,-349.4,-3.2,160.8,-2723,1962,18501,26.45
128,2026-03-06T18:43:50.511000,18:43:50.511,0.58857,2.11504,-9.58945,-10.498,-7.3853,7.2632,168.5,-2.6,160.1,0.58857,-2.11504,9.58945,-10.498,7.3853,7.2632,-348.5,-2.6,160.1,-2594,1820,18476,26.38
129,2026-03-06T18:43:50.611000,18:43:50.611,0.66035,2.15332,-9.3502,1.8311,5.6152,5.249,167.9,-2.4,159.5,0.66035,-2.15332,9.3502,1.8311,-5.6152,5.249,-347.9,-2.4,159.5,-2473,1584,18484,26.32
130,2026-03-06T18:43:50.710000,18:43:50.710,1.00488,2.34473,-9.53203,-2.6855,0.7324,5.188,167.7,-3.0,159.1,1.00488,-2.34473,9.53203,-2.6855,-0.7324,5.188,-347.7,-3.0,159.1,-2566,1526,18471,26.38
131,2026-03-06T18:43:50.810000,18:43:50.810,0.7417,2.11025,-9.33584,-0.6714,-4.0283,3.3569,167.7,-2.9,158.6,0.7417,-2.11025,9.33584,-0.6714,4.0283,3.3569,-347.7,-2.9,158.6,-2628,1528,18526,26.32
132,2026-03-06T18:43:50.910000,18:43:50.910,0.79434,2.11025,-9.64209,0.3662,-4.0894,3.6621,167.8,-3.0,158.2,0.79434,-2.11025,9.64209,0.3662,4.0894,3.6621,-347.8,-3.0,158.2,-2636,1579,18471,26.38
133,2026-03-06T18:43:51.010000,18:43:51.010,0.58379,2.32559,-9.23057,0.061,-0.4883,4.1504,167.7,-2.9,157.8,0.58379,-2.32559,9.23057,0.061,0.4883,4.1504,-347.7,-2.9,157.8,-2604,1576,18466,26.32
134,2026-03-06T18:43:51.110000,18:43:51.110,0.74648,2.00977,-9.91963,-3.2349,-6.4697,2.9907,167.7,-2.7,157.3,0.74648,-2.00977,9.91963,-3.2349,6.4697,2.9907,-347.7,-2.7,157.3,-2585,1639,18503,26.51
135,2026-03-06T18:43:51.209000,18:43:51.209,0.65078,2.15811,-9.51289,3.54,-2.5635,4.1504,167.6,-2.4,156.9,0.65078,-2.15811,9.51289,3.54,2.5635,4.1504,-347.6,-2.4,156.9,-2487,1653,18480,26.51
136,2026-03-06T18:43:51.309000,18:43:51.309,0.34453,2.29209,-9.58945,-0.4272,1.4038,3.7842,167.6,-2.2,156.4,0.34453,-2.29209,9.58945,-0.4272,-1.4038,3.7842,-347.6,-2.2,156.4,-2425,1691,18538,26.57
137,2026-03-06T18:43:51.409000,18:43:51.409,0.43066,2.11504,-9.39326,1.5869,-0.8545,5.4321,167.7,-2.4,156.0,0.43066,-2.11504,9.39326,1.5869,0.8545,5.4321,-347.7,-2.4,156.0,-2471,1733,18588,26.19
138,2026-03-06T18:43:51.509000,18:43:51.509,0.42588,2.31602,-9.16836,0.8545,-1.4038,5.188,167.6,-2.2,155.5,0.42588,-2.31602,9.16836,0.8545,1.4038,5.188,-347.6,-2.2,155.5,-2493,1774,18525,26.38
139,2026-03-06T18:43:51.609000,18:43:51.609,0.36367,2.12939,-9.68516,-2.8076,-4.0283,2.4414,167.7,-2.1,155.0,0.36367,-2.12939,9.68516,-2.8076,4.0283,2.4414,-347.7,-2.1,155.0,-2484,1820,18519,26.45
140,2026-03-06T18:43:51.709000,18:43:51.709,0.26797,2.18682,-9.42676,-0.3662,-1.5869,4.4556,167.5,-2.1,154.5,0.26797,-2.18682,9.42676,-0.3662,1.5869,4.4556,-347.5,-2.1,154.5,-2455,1811,18563,26.45
141,2026-03-06T18:43:51.808000,18:43:51.808,0.10049,2.15811,-9.55596,-1.77,-2.6855,5.249,167.6,-2.1,153.9,0.10049,-2.15811,9.55596,-1.77,2.6855,5.249,-347.6,-2.1,153.9,-2488,1872,18606,26.32
142,2026-03-06T18:43:51.908000,18:43:51.908,0.29189,2.00498,-9.73779,0.9155,-1.9531,6.2256,167.7,-2.2,153.3,0.29189,-2.00498,9.73779,0.9155,1.9531,6.2256,-347.7,-2.2,153.3,-2536,1919,18601,26.57
143,2026-03-06T18:43:52.008000,18:43:52.008,0.19141,2.13418,-9.25928,-2.1973,-1.2817,6.8359,167.5,-2.1,152.7,0.19141,-2.13418,9.25928,-2.1973,1.2817,6.8359,-347.5,-2.1,152.7,-2533,1934,18569,26.32
144,2026-03-06T18:43:52.108000,18:43:52.108,0.15313,2.08154,-9.94834,-1.9531,-4.8218,4.3335,167.5,-2.1,152.0,0.15313,-2.08154,9.94834,-1.9531,4.8218,4.3335,-347.5,-2.1,152.0,-2556,1894,18567,26.45
145,2026-03-06T18:43:52.208000,18:43:52.208,0.24883,2.06719,-9.4124,2.5635,2.9907,8.8501,167.3,-2.1,151.4,0.24883,-2.06719,9.4124,2.5635,-2.9907,8.8501,-347.3,-2.1,151.4,-2558,1860,18537,26.51
146,2026-03-06T18:43:52.308000,18:43:52.308,0.31104,2.15811,-9.78086,-2.4414,-1.0986,7.2632,167.2,-2.1,150.7,0.31104,-2.15811,9.78086,-2.4414,1.0986,7.2632,-347.2,-2.1,150.7,-2613,1875,18587,26.38
147,2026-03-06T18:43:52.407000,18:43:52.407,0.11006,2.02412,-9.74736,2.9907,-4.5166,7.7515,167.2,-2.1,149.9,0.11006,-2.02412,9.74736,2.9907,4.5166,7.7515,-347.2,-2.1,149.9,-2610,1902,18633,26.45
148,2026-03-06T18:43:52.507000,18:43:52.507,-0.18662,2.17246,-9.17793,2.3193,2.3193,7.6904,167.2,-1.9,149.2,-0.18662,-2.17246,9.17793,2.3193,-2.3193,7.6904,-347.2,-1.9,149.2,-2584,1979,18613,26.38
149,2026-03-06T18:43:52.607000,18:43:52.607,0.20576,1.97148,-10.06797,3.0518,4.0283,7.2021,167.6,-2.1,148.5,0.20576,-1.97148,10.06797,3.0518,-4.0283,7.2021,-347.6,-2.1,148.5,-2618,2080,18609,26.51
150,2026-03-06T18:43:52.707000,18:43:52.707,0.8374,2.01934,-9.64688,-3.2349,0.6104,8.7891,167.4,-2.7,147.8,0.8374,-2.01934,9.64688,-3.2349,-0.6104,8.7891,-347.4,-2.7,147.8,-2738,2186,18626,26.26
151,2026-03-06T18:43:52.807000,18:43:52.807,0.33018,2.1916,-9.51768,-5.6152,-3.2349,6.897,167.0,-2.4,147.0,0.33018,-2.1916,9.51768,-5.6152,3.2349,6.897,-347.0,-2.4,147.0,-2781,2173,18598,26.51
152,2026-03-06T18:43:52.906000,18:43:52.906,-0.10049,2.00498,-9.52725,0.2441,-5.3711,6.4697,167.2,-2.1,146.2,-0.10049,-2.00498,9.52725,0.2441,5.3711,6.4697,-347.2,-2.1,146.2,-2712,2138,18619,26.38
153,2026-03-06T18:43:53.006000,18:43:53.006,-0.0335,2.05762,-9.63252,4.4556,3.0518,8.667,167.3,-2.1,145.4,-0.0335,-2.05762,9.63252,4.4556,-3.0518,8.667,-347.3,-2.1,145.4,-2648,2260,18628,26.45
154,2026-03-06T18:43:53.106000,18:43:53.106,0.55029,2.15332,-9.42197,-3.2959,3.2349,8.3008,167.2,-2.2,144.7,0.55029,-2.15332,9.42197,-3.2959,-3.2349,8.3008,-347.2,-2.2,144.7,-2692,2328,18632,26.57
155,2026-03-06T18:43:53.206000,18:43:53.206,0.73691,1.871,-10.06797,-5.0049,-8.8501,6.1646,167.2,-2.4,143.8,0.73691,-1.871,10.06797,-5.0049,8.8501,6.1646,-347.2,-2.4,143.8,-2780,2310,18591,26.45
156,2026-03-06T18:43:53.306000,18:43:53.306,-0.06699,2.02891,-9.37412,2.4414,-0.9155,7.2021,166.9,-2.1,143.2,-0.06699,-2.02891,9.37412,2.4414,0.9155,7.2021,-346.9,-2.1,143.2,-2683,2250,18640,26.38
157,2026-03-06T18:43:53.406000,18:43:53.406,0.17705,2.17725,-9.14922,1.9531,2.8687,8.1177,167.0,-2.0,142.5,0.17705,-2.17725,9.14922,1.9531,-2.8687,8.1177,-347.0,-2.0,142.5,-2687,2319,18622,26.45
158,2026-03-06T18:43:53.505000,18:43:53.505,0.34932,1.88057,-10.13496,-6.6528,-3.3569,4.8218,167.2,-2.2,141.8,0.34932,-1.88057,10.13496,-6.6528,3.3569,4.8218,-347.2,-2.2,141.8,-2749,2429,18596,26.38
159,2026-03-06T18:43:53.605000,18:43:53.605,0.53594,2.01934,-9.29277,3.6621,-0.9766,8.1787,167.0,-2.3,141.1,0.53594,-2.01934,9.29277,3.6621,0.9766,8.1787,-347.0,-2.3,141.1,-2753,2419,18639,26.32
160,2026-03-06T18:43:53.705000,18:43:53.705,0.44023,2.18682,-9.40762,-2.1362,2.6245,6.4697,167.0,-2.3,140.4,0.44023,-2.18682,9.40762,-2.1362,-2.6245,6.4697,-347.0,-2.3,140.4,-2767,2479,18646,26.64
161,2026-03-06T18:43:53.806000,18:43:53.806,0.58379,1.77051,-9.57031,-0.4883,-5.3101,6.0425,167.3,-2.4,139.8,0.58379,-1.77051,9.57031,-0.4883,5.3101,6.0425,-347.3,-2.4,139.8,-2824,2481,18614,26.38
162,2026-03-06T18:43:53.906000,18:43:53.906,0.57422,2.11504,-9.69951,1.709,2.0752,5.0659,167.3,-2.5,139.2,0.57422,-2.11504,9.69951,1.709,-2.0752,5.0659,-347.3,-2.5,139.2,-2784,2519,18645,26.45
163,2026-03-06T18:43:54.005000,18:43:54.005,0.89482,2.05762,-9.25449,-0.4883,1.9531,6.2256,167.2,-2.7,138.8,0.89482,-2.05762,9.25449,-0.4883,-1.9531,6.2256,-347.2,-2.7,138.8,-2836,2533,18605,26.38
164,2026-03-06T18:43:54.105000,18:43:54.105,0.71299,1.82314,-9.71387,-7.1411,-5.3101,2.5024,167.3,-2.7,138.2,0.71299,-1.82314,9.71387,-7.1411,5.3101,2.5024,-347.3,-2.7,138.2,-2842,2565,18638,26.38
165,2026-03-06T18:43:54.205000,18:43:54.205,0.66992,2.15332,-9.5416,2.8076,-1.3428,5.188,167.1,-2.9,137.8,0.66992,-2.15332,9.5416,2.8076,1.3428,5.188,-347.1,-2.9,137.8,-2842,2542,18635,26.32
166,2026-03-06T18:43:54.305000,18:43:54.305,0.84697,2.14375,-9.33584,4.0283,4.7607,5.127,167.2,-3.0,137.4,0.84697,-2.14375,9.33584,4.0283,-4.7607,5.127,-347.2,-3.0,137.4,-2854,2569,18643,26.45
167,2026-03-06T18:43:54.405000,18:43:54.405,0.66035,1.96191,-9.78564,-3.54,-2.1973,3.1128,167.4,-3.0,137.0,0.66035,-1.96191,9.78564,-3.54,2.1973,3.1128,-347.4,-3.0,137.0,-2871,2621,18632,26.45
168,2026-03-06T18:43:54.504000,18:43:54.504,1.21064,2.03369,-9.39326,-0.1221,0.7935,4.4556,167.3,-3.5,136.7,1.21064,-2.03369,9.39326,-0.1221,-0.7935,4.4556,-347.3,-3.5,136.7,-2903,2619,18636,26.38
169,2026-03-06T18:43:54.604000,18:43:54.604,1.21064,2.01934,-9.36455,1.5869,1.3428,3.6011,167.2,-3.6,136.3,1.21064,-2.01934,9.36455,1.5869,-1.3428,3.6011,-347.2,-3.6,136.3,-2918,2576,18630,26.38
170,2026-03-06T18:43:54.704000,18:43:54.704,1.11016,2.14375,-9.35977,-2.6855,0.4883,2.0752,167.0,-3.7,136.1,1.11016,-2.14375,9.35977,-2.6855,-0.4883,2.0752,-347.0,-3.7,136.1,-2927,2562,18658,26.45
171,2026-03-06T18:43:54.803000,18:43:54.803,1.17236,1.98584,-10.31201,-1.6479,-2.5024,0.9155,167.3,-4.0,135.8,1.17236,-1.98584,10.31201,-1.6479,2.5024,0.9155,-347.3,-4.0,135.8,-2966,2595,18649,26.51
172,2026-03-06T18:43:54.903000,18:43:54.903,1.51211,1.98584,-9.32627,3.479,1.4038,1.77,167.1,-4.3,135.8,1.51211,-1.98584,9.32627,3.479,-1.4038,1.77,-347.1,-4.3,135.8,-3007,2570,18622,26.51
173,2026-03-06T18:43:55.003000,18:43:55.003,1.30635,2.09111,-9.13965,-2.0142,0.1831,1.709,166.8,-4.3,135.7,1.30635,-2.09111,9.13965,-2.0142,-0.1831,1.709,-346.8,-4.3,135.7,-2988,2528,18589,26.45
174,2026-03-06T18:43:55.103000,18:43:55.103,1.21064,1.99541,-9.23535,-4.3335,-4.0283,-0.9155,166.8,-4.3,135.5,1.21064,-1.99541,9.23535,-4.3335,4.0283,-0.9155,-346.8,-4.3,135.5,-2994,2468,18567,26.38
175,2026-03-06T18:43:55.202000,18:43:55.202,1.33984,1.66523,-9.86221,-0.8545,-2.3193,-0.4272,167.1,-4.5,135.5,1.33984,-1.66523,9.86221,-0.8545,2.3193,-0.4272,-347.1,-4.5,135.5,-2961,2468,18572,26.45
176,2026-03-06T18:43:55.302000,18:43:55.302,1.46904,1.68916,-9.27842,7.0801,0.7324,1.6479,167.2,-4.6,135.4,1.46904,-1.68916,9.27842,7.0801,-0.7324,1.6479,-347.2,-4.6,135.4,-2908,2451,18586,26.64
177,2026-03-06T18:43:55.402000,18:43:55.402,1.0623,1.72266,-9.46982,-2.1973,-6.0425,-0.4272,167.3,-4.1,135.1,1.0623,-1.72266,9.46982,-2.1973,6.0425,-0.4272,-347.3,-4.1,135.1,-2817,2489,18582,26.51
178,2026-03-06T18:43:55.503000,18:43:55.503,1.20107,1.14844,-9.80479,-8.5449,-5.0049,-2.3804,167.9,-4.2,135.1,1.20107,-1.14844,9.80479,-8.5449,5.0049,-2.3804,-347.9,-4.2,135.1,-2686,2530,18607,26.51
179,2026-03-06T18:43:55.603000,18:43:55.603,1.03359,0.91875,-9.43154,3.418,-2.0752,-0.8545,167.9,-4.2,135.3,1.03359,-0.91875,9.43154,3.418,2.0752,-0.8545,-347.9,-4.2,135.3,-2606,2437,18593,26.51
180,2026-03-06T18:43:55.702000,18:43:55.702,1.29678,1.7083,-9.91484,1.6479,9.2773,2.3804,168.1,-4.4,135.2,1.29678,-1.7083,9.91484,1.6479,-9.2773,2.3804,-348.1,-4.4,135.2,-2578,2411,18562,26.51
181,2026-03-06T18:43:55.801000,18:43:55.801,1.40684,1.18672,-9.56074,-1.1597,-1.8311,-2.3193,168.2,-4.8,135.4,1.40684,-1.18672,9.56074,-1.1597,1.8311,-2.3193,-348.2,-4.8,135.4,-2694,2418,18581,26.64
182,2026-03-06T18:43:55.901000,18:43:55.901,0.8709,1.4834,-10.00098,-5.4932,-2.3804,-0.6104,168.2,-4.6,135.4,0.8709,-1.4834,10.00098,-5.4932,2.3804,-0.6104,-348.2,-4.6,135.4,-2693,2409,18584,26.57
183,2026-03-06T18:43:56.001000,18:43:56.001,1.25371,1.2585,-9.61816,3.6621,1.2817,-0.061,168.6,-4.9,135.4,1.25371,-1.2585,9.61816,3.6621,-1.2817,-0.061,-348.6,-4.9,135.4,-2686,2370,18606,26.32
184,2026-03-06T18:43:56.101000,18:43:56.101,0.95225,1.26328,-9.37891,0.3662,1.0986,0.8545,168.7,-4.8,135.4,0.95225,-1.26328,9.37891,0.3662,-1.0986,0.8545,-348.7,-4.8,135.4,-2674,2415,18626,26.57
185,2026-03-06T18:43:56.201000,18:43:56.201,1.03359,1.40684,-9.46025,0.2441,-0.2441,0.9766,168.9,-4.8,135.3,1.03359,-1.40684,9.46025,0.2441,0.2441,0.9766,-348.9,-4.8,135.3,-2686,2372,18569,26.45
186,2026-03-06T18:43:56.300000,18:43:56.300,1.04316,1.17715,-9.79521,-1.709,-5.6152,-1.5259,169.3,-4.9,135.3,1.04316,-1.17715,9.79521,-1.709,5.6152,-1.5259,-349.3,-4.9,135.3,-2706,2423,18587,26.51
187,2026-03-06T18:43:56.400000,18:43:56.400,0.71299,1.27285,-9.54639,1.4038,-1.3428,0.7324,169.6,-4.7,135.3,0.71299,-1.27285,9.54639,1.4038,1.3428,0.7324,-349.6,-4.7,135.3,-2660,2463,18661,26.64
188,2026-03-06T18:43:56.500000,18:43:56.500,0.9666,1.47861,-9.48896,1.1597,5.3101,2.8076,169.7,-4.7,135.1,0.9666,-1.47861,9.48896,1.1597,-5.3101,2.8076,-349.7,-4.7,135.1,-2641,2491,18628,26.57
189,2026-03-06T18:43:56.600000,18:43:56.600,1.22021,1.41641,-9.76172,-5.8594,-5.127,-1.0986,169.7,-5.0,135.1,1.22021,-1.41641,9.76172,-5.8594,5.127,-1.0986,-349.7,-5.0,135.1,-2699,2504,18601,26.51
190,2026-03-06T18:43:56.700000,18:43:56.700,0.80391,1.60781,-9.58467,0.9155,-3.1128,1.4648,169.7,-4.8,135.0,0.80391,-1.60781,9.58467,0.9155,3.1128,1.4648,-349.7,-4.8,135.0,-2679,2480,18613,26.45
191,2026-03-06T18:43:56.800000,18:43:56.800,0.91875,1.55996,-9.51289,3.9062,2.5635,2.0142,169.8,-4.8,134.9,0.91875,-1.55996,9.51289,3.9062,-2.5635,2.0142,-349.8,-4.8,134.9,-2657,2454,18603,26.57
192,2026-03-06T18:43:56.900000,18:43:56.900,0.9666,1.72266,-9.67559,-4.2725,-2.1973,0.7324,169.8,-4.7,134.8,0.9666,-1.72266,9.67559,-4.2725,2.1973,0.7324,-349.8,-4.7,134.8,-2629,2479,18615,26.57
193,2026-03-06T18:43:56.999000,18:43:56.999,1.11494,1.60781,-9.99619,0.6104,-3.479,0.1221,169.9,-4.8,134.6,1.11494,-1.60781,9.99619,0.6104,3.479,0.1221,-349.9,-4.8,134.6,-2650,2492,18597,26.51
194,2026-03-06T18:43:57.099000,18:43:57.099,0.91396,1.35898,-9.43633,1.5259,1.2207,1.1597,170.0,-4.8,134.6,0.91396,-1.35898,9.43633,1.5259,-1.2207,1.1597,-350.0,-4.8,134.6,-2654,2523,18578,26.57
195,2026-03-06T18:43:57.199000,18:43:57.199,1.01445,1.66045,-9.47939,-1.0376,2.8687,1.0986,169.8,-4.7,134.5,1.01445,-1.66045,9.47939,-1.0376,-2.8687,1.0986,-349.8,-4.7,134.5,-2627,2508,18609,26.51
196,2026-03-06T18:43:57.299000,18:43:57.299,0.95225,1.71787,-10.07754,-0.3662,-5.3101,0.061,170.0,-5.0,134.4,0.95225,-1.71787,10.07754,-0.3662,5.3101,0.061,-350.0,-5.0,134.4,-2687,2528,18595,26.57
197,2026-03-06T18:43:57.399000,18:43:57.399,1.11016,1.46426,-9.6708,2.0752,0.4272,0.9155,170.2,-5.0,134.3,1.11016,-1.46426,9.6708,2.0752,-0.4272,0.9155,-350.2,-5.0,134.3,-2701,2597,18685,26.51
198,2026-03-06T18:43:57.498000,18:43:57.498,0.89961,1.64131,-9.49854,-0.7324,2.1973,0.5493,170.0,-4.9,134.2,0.89961,-1.64131,9.49854,-0.7324,-2.1973,0.5493,-350.0,-4.9,134.2,-2662,2626,18809,26.51
199,2026-03-06T18:43:57.598000,18:43:57.598,0.80391,1.71309,-9.80957,-6.4087,-1.3428,-1.4648,169.9,-5.0,134.2,0.80391,-1.71309,9.80957,-6.4087,1.3428,-1.4648,-349.9,-5.0,134.2,-2718,2603,18723,26.51
200,2026-03-06T18:43:57.698000,18:43:57.698,1.63174,1.18672,-9.90527,2.8076,2.4414,0.7935,170.0,-5.6,134.2,1.63174,-1.18672,9.90527,2.8076,-2.4414,0.7935,-350.0,-5.6,134.2,-2808,2549,18700,26.38
201,2026-03-06T18:43:57.798000,18:43:57.798,0.81348,1.77529,-9.78564,-6.5918,-2.5635,-1.0376,169.7,-5.4,134.2,0.81348,-1.77529,9.78564,-6.5918,2.5635,-1.0376,-349.7,-5.4,134.2,-2831,2576,18770,26.51
202,2026-03-06T18:43:57.898000,18:43:57.898,1.0001,1.79443,-9.58945,-3.479,0.7324,1.5869,169.4,-5.4,134.1,1.0001,-1.79443,9.58945,-3.479,-0.7324,1.5869,-349.4,-5.4,134.1,-2829,2456,18661,26.64
203,2026-03-06T18:43:57.997000,18:43:57.997,1.43076,1.55518,-9.61338,-3.8452,-1.2207,0.0,169.3,-5.7,134.0,1.43076,-1.55518,9.61338,-3.8452,1.2207,0.0,-349.3,-5.7,134.0,-2856,2382,18581,26.38
204,2026-03-06T18:43:58.097000,18:43:58.097,1.33027,1.67959,-9.25449,0.8545,-0.061,2.3193,169.1,-5.7,133.9,1.33027,-1.67959,9.25449,0.8545,0.061,2.3193,-349.1,-5.7,133.9,-2853,2323,18598,26.32
205,2026-03-06T18:43:58.197000,18:43:58.197,0.86133,1.73223,-9.14443,0.9155,0.7324,-0.8545,169.5,-5.5,133.9,0.86133,-1.73223,9.14443,0.9155,-0.7324,-0.8545,-349.5,-5.5,133.9,-2827,2344,18583,26.7
206,2026-03-06T18:43:58.297000,18:43:58.297,1.3207,1.41641,-9.94834,-6.1646,-6.8359,0.1221,169.6,-5.5,133.8,1.3207,-1.41641,9.94834,-6.1646,6.8359,0.1221,-349.6,-5.5,133.8,-2824,2417,18640,26.51
207,2026-03-06T18:43:58.397000,18:43:58.397,1.31113,1.75137,-9.30234,3.0518,-2.0142,2.4414,169.3,-5.4,133.6,1.31113,-1.75137,9.30234,3.0518,2.0142,2.4414,-349.3,-5.4,133.6,-2708,2296,18650,26.51
208,2026-03-06T18:43:58.497000,18:43:58.497,0.90918,1.85664,-9.32627,0.7324,2.9297,0.5493,169.1,-5.1,133.5,0.90918,-1.85664,9.32627,0.7324,-2.9297,0.5493,-349.1,-5.1,133.5,-2653,2226,18649,26.51
209,2026-03-06T18:43:58.596000,18:43:58.596,0.79912,1.73701,-9.46025,-5.4321,-5.127,-0.3662,169.1,-5.1,133.5,0.79912,-1.73701,9.46025,-5.4321,5.127,-0.3662,-349.1,-5.1,133.5,-2636,2239,18683,26.51
210,2026-03-06T18:43:58.696000,18:43:58.696,1.20586,1.83271,-9.70908,-1.2817,-0.1831,1.2207,169.1,-5.4,133.4,1.20586,-1.83271,9.70908,-1.2817,0.1831,1.2207,-349.1,-5.4,133.4,-2630,2236,18649,26.51
211,2026-03-06T18:43:58.796000,18:43:58.796,1.13887,1.73223,-9.53682,3.1128,0.9155,0.061,169.0,-5.4,133.4,1.13887,-1.73223,9.53682,3.1128,-0.9155,0.061,-349.0,-5.4,133.4,-2679,2209,18616,26.45
212,2026-03-06T18:43:58.896000,18:43:58.896,1.11494,1.85186,-9.42197,-0.7324,-0.5493,0.1831,169.0,-5.2,133.4,1.11494,-1.85186,9.42197,-0.7324,0.5493,0.1831,-349.0,-5.2,133.4,-2644,2246,18605,26.57
213,2026-03-06T18:43:58.996000,18:43:58.996,0.99531,1.82793,-9.88613,-0.3052,-4.6997,-0.061,169.1,-5.2,133.2,0.99531,-1.82793,9.88613,-0.3052,4.6997,-0.061,-349.1,-5.2,133.2,-2628,2265,18599,26.57
214,2026-03-06T18:43:59.096000,18:43:59.096,1.0001,1.56475,-9.72344,0.061,-1.5259,-0.3662,169.3,-5.2,133.2,1.0001,-1.56475,9.72344,0.061,1.5259,-0.3662,-349.3,-5.2,133.2,-2595,2238,18604,26.57
215,2026-03-06T18:43:59.195000,18:43:59.195,1.00488,1.74658,-9.61338,-0.4272,3.7231,1.4038,169.1,-5.1,133.2,1.00488,-1.74658,9.61338,-0.4272,-3.7231,1.4038,-349.1,-5.1,133.2,-2572,2205,18616,26.45
216,2026-03-06T18:43:59.295000,18:43:59.295,1.25371,1.89971,-9.79521,-4.2114,-2.5635,0.1221,169.0,-5.2,133.1,1.25371,-1.89971,9.79521,-4.2114,2.5635,0.1221,-349.0,-5.2,133.1,-2655,2201,18589,26.51
217,2026-03-06T18:43:59.395000,18:43:59.395,1.0623,1.54082,-9.59424,2.8687,-3.1738,0.3662,169.2,-5.3,133.0,1.0623,-1.54082,9.59424,2.8687,3.1738,0.3662,-349.2,-5.3,133.0,-2652,2166,18562,26.57
218,2026-03-06T18:43:59.495000,18:43:59.495,0.76084,1.78486,-9.57988,9.8877,3.2959,0.4272,169.6,-5.0,132.9,0.76084,-1.78486,9.57988,9.8877,-3.2959,0.4272,-349.6,-5.0,132.9,-2568,2292,18590,26.45
219,2026-03-06T18:43:59.595000,18:43:59.595,1.11016,1.60303,-9.60381,-5.7373,-3.1738,-0.3052,170.2,-5.3,132.9,1.11016,-1.60303,9.60381,-5.7373,3.1738,-0.3052,-350.2,-5.3,132.9,-2667,2572,18597,26.51
220,2026-03-06T18:43:59.694000,18:43:59.694,1.26328,1.21064,-9.5751,2.5635,-2.6245,0.4883,170.3,-5.5,132.8,1.26328,-1.21064,9.5751,2.5635,2.6245,0.4883,-350.3,-5.5,132.8,-2683,2572,18595,26.45
221,2026-03-06T18:43:59.794000,18:43:59.794,0.68428,1.64609,-9.53682,0.0,0.9155,0.6104,169.9,-5.1,132.8,0.68428,-1.64609,9.53682,0.0,-0.9155,0.6104,-349.9,-5.1,132.8,-2590,2550,18631,26.57
222,2026-03-06T18:43:59.894000,18:43:59.894,0.87568,1.26328,-9.4459,-2.9297,-2.8076,-0.3662,170.0,-5.0,132.7,0.87568,-1.26328,9.4459,-2.9297,2.8076,-0.3662,-350.0,-5.0,132.7,-2605,2528,18638,26.51
223,2026-03-06T18:43:59.994000,18:43:59.994,0.98574,1.17236,-10.11104,-2.1362,-3.6621,-0.2441,170.2,-5.1,132.6,0.98574,-1.17236,10.11104,-2.1362,3.6621,-0.2441,-350.2,-5.1,132.6,-2596,2540,18621,26.64
224,2026-03-06T18:44:00.094000,18:44:00.094,0.86611,1.23457,-9.34063,3.0518,1.3428,2.3193,170.3,-5.1,132.5,0.86611,-1.23457,9.34063,3.0518,-1.3428,2.3193,-350.3,-5.1,132.5,-2567,2554,18649,26.64
225,2026-03-06T18:44:00.194000,18:44:00.194,0.89482,1.47861,-9.32627,-0.4883,2.9297,1.5259,170.4,-5.0,132.4,0.89482,-1.47861,9.32627,-0.4883,-2.9297,1.5259,-350.4,-5.0,132.4,-2587,2615,18632,26.57
226,2026-03-06T18:44:00.293000,18:44:00.293,0.90918,1.20107,-10.12061,-4.2725,-6.4697,-1.0376,170.7,-5.1,132.3,0.90918,-1.20107,10.12061,-4.2725,6.4697,-1.0376,-350.7,-5.1,132.3,-2679,2615,18624,26.57
227,2026-03-06T18:44:00.393000,18:44:00.393,0.81826,1.17715,-9.42197,-0.6714,-0.7324,1.5869,170.8,-5.1,132.2,0.81826,-1.17715,9.42197,-0.6714,0.7324,1.5869,-350.8,-5.1,132.2,-2676,2614,18642,26.57
228,2026-03-06T18:44:00.493000,18:44:00.493,0.77041,1.23936,-9.42676,3.0518,4.2114,2.1362,170.9,-5.0,132.0,0.77041,-1.23936,9.42676,3.0518,-4.2114,2.1362,-350.9,-5.0,132.0,-2672,2603,18692,26.57
229,2026-03-06T18:44:00.593000,18:44:00.593,1.02402,0.78477,-10.13496,-5.188,-3.6621,-0.9155,171.2,-5.1,132.0,1.02402,-0.78477,10.13496,-5.188,3.6621,-0.9155,-351.2,-5.1,132.0,-2721,2613,18708,26.45
230,2026-03-06T18:44:00.693000,18:44:00.693,1.10059,0.66035,-9.75693,1.709,-1.5869,1.3428,171.1,-5.0,131.9,1.10059,-0.66035,9.75693,1.709,1.5869,1.3428,-351.1,-5.0,131.9,-2679,2547,18741,26.57
231,2026-03-06T18:44:00.792000,18:44:00.792,0.83262,1.0001,-9.75215,-0.9155,-0.3052,1.0986,171.1,-4.8,131.8,0.83262,-1.0001,9.75215,-0.9155,0.3052,1.0986,-351.1,-4.8,131.8,-2622,2485,18721,26.45
232,2026-03-06T18:44:00.892000,18:44:00.892,0.62686,0.56943,-9.88613,0.7935,-3.6621,-0.5493,171.7,-4.7,131.7,0.62686,-0.56943,9.88613,0.7935,3.6621,-0.5493,-351.7,-4.7,131.7,-2535,2473,18675,26.57
233,2026-03-06T18:44:00.992000,18:44:00.992,0.7082,0.39717,-10.08711,0.3052,0.1221,0.4272,172.0,-4.7,131.7,0.7082,-0.39717,10.08711,0.3052,-0.1221,0.4272,-352.0,-4.7,131.7,-2443,2560,18719,26.57
234,2026-03-06T18:44:01.092000,18:44:01.092,1.225,0.66035,-9.39805,-3.7842,1.6479,2.5024,171.8,-4.6,131.6,1.225,-0.66035,9.39805,-3.7842,-1.6479,2.5024,-351.8,-4.6,131.6,-2444,2531,18704,26.38
235,2026-03-06T18:44:01.192000,18:44:01.192,1.05273,0.26318,-10.21631,-3.3569,-12.6343,-1.5869,172.2,-4.4,131.4,1.05273,-0.26318,10.21631,-3.3569,12.6343,-1.5869,-352.2,-4.4,131.4,-2445,2493,18714,26.7
236,2026-03-06T18:44:01.292000,18:44:01.292,0.22969,0.19141,-9.11094,3.2959,-1.6479,0.3052,172.4,-3.8,131.5,0.22969,-0.19141,9.11094,3.2959,1.6479,0.3052,-352.4,-3.8,131.5,-2282,2469,18754,26.7
237,2026-03-06T18:44:01.391000,18:44:01.391,0.1627,0.27275,-10.03447,-2.1362,-3.1128,-0.8545,173.0,-3.5,131.4,0.1627,-0.27275,10.03447,-2.1362,3.1128,-0.8545,-353.0,-3.5,131.4,-2223,2559,18766,26.57
238,2026-03-06T18:44:01.491000,18:44:01.491,1.23457,-0.13398,-10.33594,0.1221,4.9438,1.6479,173.4,-4.0,131.3,1.23457,0.13398,10.33594,0.1221,-4.9438,1.6479,-353.4,-4.0,131.3,-2234,2571,18742,26.7
239,2026-03-06T18:44:01.591000,18:44:01.591,0.97617,0.24883,-9.63252,2.2583,-2.0752,1.6479,173.4,-3.9,131.2,0.97617,-0.24883,9.63252,2.2583,2.0752,1.6479,-353.4,-3.9,131.2,-2306,2497,18707,26.64
240,2026-03-06T18:44:01.691000,18:44:01.691,0.39717,0.22012,-9.95312,-1.2207,-6.1646,0.4272,173.7,-3.4,131.1,0.39717,-0.22012,9.95312,-1.2207,6.1646,0.4272,-353.7,-3.4,131.1,-2240,2481,18755,26.51
241,2026-03-06T18:44:01.791000,18:44:01.791,0.3876,0.21533,-9.33105,4.2114,1.2817,1.2817,174.0,-3.2,131.1,0.3876,-0.21533,9.33105,4.2114,-1.2817,1.2817,-354.0,-3.2,131.1,-2186,2469,18790,26.7
242,2026-03-06T18:44:01.890000,18:44:01.890,0.66514,0.13877,-10.03926,-3.479,-2.4414,-0.6714,174.5,-3.3,131.0,0.66514,-0.13877,10.03926,-3.479,2.4414,-0.6714,-354.5,-3.3,131.0,-2208,2553,18781,26.64
243,2026-03-06T18:44:01.990000,18:44:01.990,0.45459,0.2584,-9.9627,1.5259,0.1831,1.77,174.7,-3.2,131.0,0.45459,-0.2584,9.9627,1.5259,-0.1831,1.77,-354.7,-3.2,131.0,-2170,2530,18824,26.76
244,2026-03-06T18:44:02.090000,18:44:02.090,0.82783,0.17705,-10.12061,-0.9155,0.4272,0.9155,174.9,-3.2,130.9,0.82783,-0.17705,10.12061,-0.9155,-0.4272,0.9155,-354.9,-3.2,130.9,-2198,2548,18833,26.64
245,2026-03-06T18:44:02.190000,18:44:02.190,0.69863,0.26318,-9.71865,1.0376,-0.5493,0.5493,175.0,-3.2,130.8,0.69863,-0.26318,9.71865,1.0376,0.5493,0.5493,-355.0,-3.2,130.8,-2245,2490,18812,26.64
246,2026-03-06T18:44:02.290000,18:44:02.290,0.45938,0.39717,-9.79521,-2.1973,-3.1738,0.4272,175.2,-3.0,130.8,0.45938,-0.39717,9.79521,-2.1973,3.1738,0.4272,-355.2,-3.0,130.8,-2214,2520,18829,26.76
247,2026-03-06T18:44:02.390000,18:44:02.390,0.59814,0.43545,-9.63252,5.249,3.1128,2.1362,175.7,-3.1,130.6,0.59814,-0.43545,9.63252,5.249,-3.1128,2.1362,-355.7,-3.1,130.6,-2189,2559,18841,26.64
248,2026-03-06T18:44:02.489000,18:44:02.489,0.53115,0.2584,-9.81914,1.4038,-0.5493,-0.6714,176.0,-3.2,130.7,0.53115,-0.2584,9.81914,1.4038,0.5493,-0.6714,-356.0,-3.2,130.7,-2248,2699,18852,26.64
249,2026-03-06T18:44:02.589000,18:44:02.589,0.24883,0.26797,-9.64688,-3.0518,-2.8076,0.5493,176.1,-2.9,130.7,0.24883,-0.26797,9.64688,-3.0518,2.8076,0.5493,-356.1,-2.9,130.7,-2240,2734,18821,26.64
250,2026-03-06T18:44:02.689000,18:44:02.689,1.00967,0.21055,-9.9627,0.3052,0.1831,1.2817,176.3,-3.2,130.6,1.00967,-0.21055,9.9627,0.3052,-0.1831,1.2817,-356.3,-3.2,130.6,-2266,2682,18800,26.57
251,2026-03-06T18:44:02.789000,18:44:02.789,0.47373,0.43545,-10.26895,-2.0752,-3.1128,-0.3052,176.1,-3.0,130.5,0.47373,-0.43545,10.26895,-2.0752,3.1128,-0.3052,-356.1,-3.0,130.5,-2262,2637,18801,26.7
252,2026-03-06T18:44:02.889000,18:44:02.889,0.91875,0.31104,-10.0249,2.8076,0.9766,2.1362,176.2,-3.1,130.4,0.91875,-0.31104,10.0249,2.8076,-0.9766,2.1362,-356.2,-3.1,130.4,-2250,2610,18828,26.7
253,2026-03-06T18:44:02.989000,18:44:02.989,0.47852,0.37324,-9.87178,-0.8545,-4.6387,-0.9766,176.4,-3.0,130.4,0.47852,-0.37324,9.87178,-0.8545,4.6387,-0.9766,-356.4,-3.0,130.4,-2246,2660,18820,26.51
254,2026-03-06T18:44:03.089000,18:44:03.089,0.46895,0.35889,-9.61338,0.4883,-0.3052,2.0142,176.5,-2.8,130.3,0.46895,-0.35889,9.61338,0.4883,0.3052,2.0142,-356.5,-2.8,130.3,-2191,2713,18874,26.64
255,2026-03-06T18:44:03.188000,18:44:03.188,0.62686,0.3876,-9.65645,0.1831,0.8545,0.7324,176.6,-2.9,130.3,0.62686,-0.3876,9.65645,0.1831,-0.8545,0.7324,-356.6,-2.9,130.3,-2223,2710,18833,26.7
256,2026-03-06T18:44:03.288000,18:44:03.288,0.43545,0.26797,-9.4459,-0.9155,-0.4883,0.4272,176.6,-2.8,130.3,0.43545,-0.26797,9.4459,-0.9155,0.4883,0.4272,-356.6,-2.8,130.3,-2241,2686,18806,26.7
257,2026-03-06T18:44:03.389000,18:44:03.389,1.01445,0.27275,-10.08711,-1.6479,0.9766,0.6104,176.6,-2.9,130.2,1.01445,-0.27275,10.08711,-1.6479,-0.9766,0.6104,-356.6,-2.9,130.2,-2227,2637,18797,26.64
258,2026-03-06T18:44:03.488000,18:44:03.488,0.31104,0.28711,-9.75215,1.2207,-3.2349,0.2441,176.7,-2.8,130.2,0.31104,-0.28711,9.75215,1.2207,3.2349,0.2441,-356.7,-2.8,130.2,-2229,2643,18825,26.51
259,2026-03-06T18:44:03.587000,18:44:03.587,0.579,0.09092,-9.94355,1.4038,2.1973,1.4038,176.8,-2.6,130.1,0.579,-0.09092,9.94355,1.4038,-2.1973,1.4038,-356.8,-2.6,130.1,-2136,2667,18832,26.7
260,2026-03-06T18:44:03.687000,18:44:03.687,0.4498,0.28711,-9.67559,-4.2725,-1.4648,0.7324,176.8,-2.6,130.0,0.4498,-0.28711,9.67559,-4.2725,1.4648,0.7324,-356.8,-2.6,130.0,-2173,2686,18836,26.76
261,2026-03-06T18:44:03.787000,18:44:03.787,1.15801,-0.14355,-9.87178,-2.2583,0.9155,-0.8545,176.9,-2.9,130.0,1.15801,0.14355,9.87178,-2.2583,-0.9155,-0.8545,-356.9,-2.9,130.0,-2212,2663,18826,26.7
262,2026-03-06T18:44:03.887000,18:44:03.887,0.39717,0.23447,-9.85742,-2.5635,-4.2725,-0.3052,176.7,-2.7,130.0,0.39717,-0.23447,9.85742,-2.5635,4.2725,-0.3052,-356.7,-2.7,130.0,-2232,2557,18734,26.57
263,2026-03-06T18:44:03.987000,18:44:03.987,0.36846,0.07178,-10.03447,0.5493,-1.0376,0.3052,177.0,-2.5,129.9,0.36846,-0.07178,10.03447,0.5493,1.0376,0.3052,-357.0,-2.5,129.9,-2158,2556,18804,26.64
264,2026-03-06T18:44:04.086000,18:44:04.086,0.36367,0.16748,-10.00576,-0.3052,0.9766,0.3662,177.1,-2.5,129.9,0.36367,-0.16748,10.00576,-0.3052,-0.9766,0.3662,-357.1,-2.5,129.9,-2127,2625,18827,26.64
265,2026-03-06T18:44:04.186000,18:44:04.186,0.55508,0.18662,-10.16367,-2.8076,1.8921,1.3428,177.1,-2.6,129.8,0.55508,-0.18662,10.16367,-2.8076,-1.8921,1.3428,-357.1,-2.6,129.8,-2136,2639,18800,26.82
266,2026-03-06T18:44:04.286000,18:44:04.286,1.20586,0.43066,-9.55596,-4.0894,2.5635,1.9531,177.0,-3.0,129.7,1.20586,-0.43066,9.55596,-4.0894,-2.5635,1.9531,-357.0,-3.0,129.7,-2227,2629,18790,26.57
267,2026-03-06T18:44:04.386000,18:44:04.386,0.30146,0.59814,-9.87178,-0.8545,-4.6387,-1.5259,176.7,-2.8,129.7,0.30146,-0.59814,9.87178,-0.8545,4.6387,-1.5259,-356.7,-2.8,129.7,-2241,2591,18860,26.57
268,2026-03-06T18:44:04.486000,18:44:04.486,0.66035,0.45938,-9.79043,-1.77,-1.2207,1.2207,176.6,-2.7,129.7,0.66035,-0.45938,9.79043,-1.77,1.2207,1.2207,-356.6,-2.7,129.7,-2183,2549,18841,26.7
269,2026-03-06T18:44:04.586000,18:44:04.586,0.33496,0.63643,-9.87656,-0.7935,-1.0986,-0.7324,176.7,-2.6,129.7,0.33496,-0.63643,9.87656,-0.7935,1.0986,-0.7324,-356.7,-2.6,129.7,-2190,2540,18809,26.7
270,2026-03-06T18:44:04.685000,18:44:04.685,0.55986,0.84697,-9.73301,-0.9155,1.2207,2.5024,176.6,-2.6,129.6,0.55986,-0.84697,9.73301,-0.9155,-1.2207,2.5024,-356.6,-2.6,129.6,-2199,2551,18831,26.82
271,2026-03-06T18:44:04.785000,18:44:04.785,0.95225,1.03359,-9.51289,-0.1831,2.0142,0.6714,176.5,-2.9,129.4,0.95225,-1.03359,9.51289,-0.1831,-2.0142,0.6714,-356.5,-2.9,129.4,-2232,2598,18889,26.7
272,2026-03-06T18:44:04.885000,18:44:04.885,0.47852,0.92354,-9.87656,-3.54,-4.8218,-1.5259,176.2,-2.7,129.5,0.47852,-0.92354,9.87656,-3.54,4.8218,-1.5259,-356.2,-2.7,129.5,-2229,2556,18886,26.7
273,2026-03-06T18:44:04.985000,18:44:04.985,0.6125,0.83262,-10.02969,-0.2441,-2.1973,0.9766,176.1,-2.6,129.5,0.6125,-0.83262,10.02969,-0.2441,2.1973,0.9766,-356.1,-2.6,129.5,-2183,2474,18811,26.7
274,2026-03-06T18:44:05.085000,18:44:05.085,0.45459,1.04795,-9.78564,-2.5635,2.0142,1.1597,175.9,-2.6,129.4,0.45459,-1.04795,9.78564,-2.5635,-2.0142,1.1597,-355.9,-2.6,129.4,-2131,2418,18777,26.57
275,2026-03-06T18:44:05.184000,18:44:05.184,0.81826,1.21543,-9.52246,-0.061,2.7466,2.5024,175.5,-2.8,129.2,0.81826,-1.21543,9.52246,-0.061,-2.7466,2.5024,-355.5,-2.8,129.2,-2152,2393,18807,26.7
276,2026-03-06T18:44:05.284000,18:44:05.284,0.98096,1.46426,-9.3167,-0.7935,-2.9907,1.1597,175.2,-3.0,129.1,0.98096,-1.46426,9.3167,-0.7935,2.9907,1.1597,-355.2,-3.0,129.1,-2196,2381,18809,26.7
277,2026-03-06T18:44:05.384000,18:44:05.384,0.67471,1.86143,-9.59902,0.7324,0.8545,1.709,175.1,-2.9,129.0,0.67471,-1.86143,9.59902,0.7324,-0.8545,1.709,-355.1,-2.9,129.0,-2139,2410,18833,26.7
278,2026-03-06T18:44:05.484000,18:44:05.484,0.71299,2.19639,-9.7043,1.4038,-3.2349,0.9155,174.6,-3.0,128.8,0.71299,-2.19639,9.7043,1.4038,3.2349,0.9155,-354.6,-3.0,128.8,-2168,2407,18870,26.64
279,2026-03-06T18:44:05.584000,18:44:05.584,0.71299,1.94277,-9.7665,-2.2583,-1.4038,0.1221,174.2,-2.7,128.8,0.71299,-1.94277,9.7665,-2.2583,1.4038,0.1221,-354.2,-2.7,128.8,-2105,2358,18786,26.7
280,2026-03-06T18:44:05.684000,18:44:05.684,0.85654,1.97148,-9.72822,-1.2817,-1.8921,0.6714,173.7,-2.6,128.7,0.85654,-1.97148,9.72822,-1.2817,1.8921,0.6714,-353.7,-2.6,128.7,-2067,2307,18794,26.51
281,2026-03-06T18:44:05.783000,18:44:05.783,0.55508,1.98105,-9.49854,-0.8545,-6.2256,2.9297,173.4,-2.2,128.5,0.55508,-1.98105,9.49854,-0.8545,6.2256,2.9297,-353.4,-2.2,128.5,-1970,2238,18661,26.7
282,2026-03-06T18:44:05.883000,18:44:05.883,0.65557,2.17246,-9.47939,3.0518,-0.4272,0.7935,172.8,-2.2,128.4,0.65557,-2.17246,9.47939,3.0518,0.4272,0.7935,-352.8,-2.2,128.4,-1871,2237,18725,26.7
283,2026-03-06T18:44:05.983000,18:44:05.983,0.4498,2.27773,-9.5751,-2.3193,-1.0986,1.8311,172.6,-2.1,128.3,0.4498,-2.27773,9.5751,-2.3193,1.0986,1.8311,-352.6,-2.1,128.3,-1823,2271,18736,26.76
284,2026-03-06T18:44:06.083000,18:44:06.083,0.64121,2.67012,-9.27842,0.3662,1.5869,1.709,172.5,-2.4,128.0,0.64121,-2.67012,9.27842,0.3662,-1.5869,1.709,-352.5,-2.4,128.0,-1877,2281,18654,26.64
285,2026-03-06T18:44:06.183000,18:44:06.183,0.93789,2.8376,-9.40283,-0.7935,-1.5869,0.7324,172.0,-2.4,127.9,0.93789,-2.8376,9.40283,-0.7935,1.5869,0.7324,-352.0,-2.4,127.9,-1941,2299,18611,26.7
286,2026-03-06T18:44:06.282000,18:44:06.282,0.82305,2.87109,-9.38848,-5.188,-8.1787,-2.8076,171.2,-2.1,127.9,0.82305,-2.87109,9.38848,-5.188,8.1787,-2.8076,-351.2,-2.1,127.9,-1926,2263,18645,26.7
287,2026-03-06T18:44:06.382000,18:44:06.382,0.32539,2.96201,-9.29277,4.6997,-3.9673,0.3052,170.8,-1.6,127.8,0.32539,-2.96201,9.29277,4.6997,3.9673,0.3052,-350.8,-1.6,127.8,-1765,2233,18729,26.76
288,2026-03-06T18:44:06.482000,18:44:06.482,0.55508,2.98594,-9.45068,3.2959,0.5493,1.4038,170.7,-1.5,127.7,0.55508,-2.98594,9.45068,3.2959,-0.5493,1.4038,-350.7,-1.5,127.7,-1649,2369,18734,26.64
289,2026-03-06T18:44:06.582000,18:44:06.582,0.66035,2.82803,-9.18271,2.5635,-1.1597,0.9155,170.4,-1.6,127.5,0.66035,-2.82803,9.18271,2.5635,1.1597,0.9155,-350.4,-1.6,127.5,-1622,2503,18781,26.64
290,2026-03-06T18:44:06.682000,18:44:06.682,0.19141,2.88545,-9.4459,-2.5024,-2.6245,0.2441,170.0,-1.4,127.5,0.19141,-2.88545,9.4459,-2.5024,2.6245,0.2441,-350.0,-1.4,127.5,-1567,2546,18794,26.57
291,2026-03-06T18:44:06.782000,18:44:06.782,0.67471,2.86631,-9.25449,0.8545,1.8311,2.8687,169.5,-1.5,127.3,0.67471,-2.86631,9.25449,0.8545,-1.8311,2.8687,-349.5,-1.5,127.3,-1542,2517,18825,26.7
292,2026-03-06T18:44:06.881000,18:44:06.881,0.60293,3.00029,-9.36934,-2.3804,-1.4038,-0.3662,168.9,-1.6,127.1,0.60293,-3.00029,9.36934,-2.3804,1.4038,-0.3662,-348.9,-1.6,127.1,-1562,2510,18762,26.57
293,2026-03-06T18:44:06.981000,18:44:06.981,0.43066,2.72275,-9.6708,0.3662,0.9155,1.5259,168.6,-1.7,127.1,0.43066,-2.72275,9.6708,0.3662,-0.9155,1.5259,-348.6,-1.7,127.1,-1556,2452,18733,26.7
294,2026-03-06T18:44:07.081000,18:44:07.081,0.43066,3.22998,-9.04395,4.1504,5.3711,2.6855,168.2,-1.9,127.0,0.43066,-3.22998,9.04395,4.1504,-5.3711,2.6855,-348.2,-1.9,127.0,-1555,2453,18763,26.76
295,2026-03-06T18:44:07.181000,18:44:07.181,1.37334,3.01943,-9.61816,-2.5024,3.6621,0.9155,168.0,-2.5,126.9,1.37334,-3.01943,9.61816,-2.5024,-3.6621,0.9155,-348.0,-2.5,126.9,-1626,2591,18743,26.7
296,2026-03-06T18:44:07.281000,18:44:07.281,1.22021,3.50752,-9.21143,-4.6997,1.2817,-0.2441,167.0,-2.9,126.9,1.22021,-3.50752,9.21143,-4.6997,-1.2817,-0.2441,-347.0,-2.9,126.9,-1730,2527,18706,26.76
297,2026-03-06T18:44:07.380000,18:44:07.380,1.41641,3.44053,-9.39326,-0.061,-1.8311,-2.1362,166.5,-3.0,127.0,1.41641,-3.44053,9.39326,-0.061,1.8311,-2.1362,-346.5,-3.0,127.0,-1763,2402,18707,26.76
298,2026-03-06T18:44:07.480000,18:44:07.480,1.05273,3.48359,-9.22578,5.0659,-2.2583,-5.0049,166.3,-3.0,127.3,1.05273,-3.48359,9.22578,5.0659,2.2583,-5.0049,-346.3,-3.0,127.3,-1722,2385,18709,26.82
299,2026-03-06T18:44:07.580000,18:44:07.580,1.0623,3.20127,-9.49854,-3.1738,-0.9155,-6.1035,165.9,-2.9,127.8,1.0623,-3.20127,9.49854,-3.1738,0.9155,-6.1035,-345.9,-2.9,127.8,-1681,2373,18691,26.82
300,2026-03-06T18:44:07.680000,18:44:07.680,1.54082,3.07686,-9.37412,-1.5259,-1.5259,-5.188,165.6,-3.1,128.3,1.54082,-3.07686,9.37412,-1.5259,1.5259,-5.188,-345.6,-3.1,128.3,-1600,2317,18694,26.82
301,2026-03-06T18:44:07.780000,18:44:07.780,1.6748,2.98115,-9.23535,3.1128,2.6245,-7.4463,165.2,-3.3,128.9,1.6748,-2.98115,9.23535,3.1128,-2.6245,-7.4463,-345.2,-3.3,128.9,-1557,2253,18706,26.7
302,2026-03-06T18:44:07.880000,18:44:07.880,1.51211,2.66055,-9.20186,0.5493,1.2817,-10.1929,165.0,-3.5,129.8,1.51211,-2.66055,9.20186,0.5493,-1.2817,-10.1929,-345.0,-3.5,129.8,-1581,2316,18736,26.76
